[{"geometry":{"location":{"lat":28.5769491,"lng":77.3583737},"viewport":{"northeast":{"lat":28.5781545302915,"lng":77.35987628029152},"southwest":{"lat":28.5754565697085,"lng":77.3571783197085}}},"icon":"https:\/\/maps.gstatic.com\/mapfiles\/place_api\/icons\/gas_station-71.png","id":"6fe5a3f3e11acfa142c838c18cda4820480b57ae","name":"Bharat Petroleum Petrol Pump","opening_hours":{"open_now":true,"weekday_text":[]},"photos":[{"height":960,"html_attributions":["<a href=\"https:\/\/maps.google.com\/maps\/contrib\/114611921296654241438\/photos\">praveenchander swabhimani<\/a>"],"photo_reference":"CmRaAAAAdWfUfTIYxfMH1oKX1S9j18IB_FQ5N_CvYE9IUZg-QY_xvWu_avxswjKTxuH914pkG47EYLUzYxvf8kCSplmsKyy63w9DL_TF7MkJ7L9f-6sJNBSIOBcpqtBXmjs65PGoEhAXNg88ya2PxXXj_2sUpiogGhQ9diLhls2HpiTTsk6_tfZDDuHsSQ","width":1280}],"place_id":"ChIJVezpBpflDDkRuBDqwpqKEsg","rating":4.2,"reference":"CmRSAAAA_IE43ah4qEUpwribw-gflChnQQrt3Ur6uEpJNZ24vNBZFerja9s0BzTCnUdOTvA_DFiqHQfaGNeOIvttfW635A29Bu30DwOGpLRIgxFVhx22RSKymsp6lX_CNQ0T9aBsEhBP9jwjEOhD8dRIkS1qcebbGhQYoRbdNeOrNEdQaF5rGzq5RVGyHw","scope":"GOOGLE","types":["gas_station","point_of_interest","establishment"],"vicinity":"Golf Marg, Sector 35, Noida"},{"geometry":{"location":{"lat":28.5953861,"lng":77.3727286},"viewport":{"northeast":{"lat":28.59682148029151,"lng":77.37395118029151},"southwest":{"lat":28.5941235197085,"lng":77.37125321970849}}},"icon":"https:\/\/maps.gstatic.com\/mapfiles\/place_api\/icons\/gas_station-71.png","id":"aa4a27d43179f5df53b66cffe62ee1cf4e7e45a3","name":"HP Petrol Pump","photos":[{"height":3096,"html_attributions":["<a href=\"https:\/\/maps.google.com\/maps\/contrib\/114070347023474708874\/photos\">kamal singh<\/a>"],"photo_reference":"CmRaAAAA5pxd7YAGnhiHVzj1VbKszNmZKXiDaGq3vjNHtpAvax70oVCMs-Irq3qtwWGD5UUMTGVP_BZa5LZjEz5Zx_rukbXAVdFCKUOZWa_HOh9tfBnoAX_tc08XKJgpNnUlviZeEhCtJMlg68h5Lf1-AUpGlWnNGhQyFTgadbITHwI2OQOidau5PBYskw","width":4128}],"place_id":"ChIJPwuY1H7lDDkRK_UayG5wghg","rating":3.1,"reference":"CmRRAAAA7BDo0l4SRO66nmy3RzUFF_AaLOQ1SEIsqYCRNnPiRfgiWWSF5VRQwFNOWaElfrR-p7wEuog7eNcVZ-zuSVbiVGf95VJgUpXUWBuFMNKjWp0_QjXAW8AnglSfDex4zmLEEhDFHJSxQnSrOFilyGqLyR_dGhSesHDkAiZNFPwsJ-7M5MmbSvB7Fg","scope":"GOOGLE","types":["gas_station","point_of_interest","establishment"],"vicinity":"Sector 71, Noida"},{"geometry":{"location":{"lat":28.595933,"lng":77.37270409999999},"viewport":{"northeast":{"lat":28.5972819802915,"lng":77.3740530802915},"southwest":{"lat":28.5945840197085,"lng":77.3713551197085}}},"icon":"https:\/\/maps.gstatic.com\/mapfiles\/place_api\/icons\/generic_business-71.png","id":"00ea200265dd662902dd7099783217f06056c6c6","name":"Indraprastha Gas Limited CNG Station","opening_hours":{"open_now":true,"weekday_text":[]},"photos":[{"height":2304,"html_attributions":["<a href=\"https:\/\/maps.google.com\/maps\/contrib\/104292796579764089656\/photos\">Rohitkumar Gautam<\/a>"],"photo_reference":"CmRaAAAAXM3q-gyygNe4x9y7kHo-W_GTxyEYol0-YB8YcjuFlLiHBR6Jls8Rfw-t33VoGwbc4bnhxjc1bg92QLxavwyhT93qjeA9hRF8NuwWZqaPERBWE0Tj-89z4yaBSp87srYxEhBTCOQAya72HGTLjBslLp_JGhQa9jWNfvVSleKitWePNyUXcIxqzA","width":4096}],"place_id":"ChIJGbTozH7lDDkRwh_giN5rjK4","rating":4,"reference":"CmRSAAAALzkECVkcaswqPbmypg3UmW8-L6O71bvYryaRTZwATDENiiJJOn9n3t5NSS0wFQJMDHzXLIGyViXqi3V_1I0Vp5mQ8fhK53VJLnAYklXKMS7ums2-AMVDCX8oTQzni2PYEhBmb79PvmKBS6wODUmUYnBkGhSfQ5GC6BD4qaTeKVun8Em7wThEDA","scope":"GOOGLE","types":["gas_station","point_of_interest","establishment"],"vicinity":"Sector 71, Gautam Buddha Nagar, Noida"},{"geometry":{"location":{"lat":28.5932246,"lng":77.3725034},"viewport":{"northeast":{"lat":28.5945931302915,"lng":77.37409683029149},"southwest":{"lat":28.5918951697085,"lng":77.37139886970849}}},"icon":"https:\/\/maps.gstatic.com\/mapfiles\/place_api\/icons\/gas_station-71.png","id":"a2482c579342e5bc032383acaa3b4bffcdbd15b5","name":"Indian Oil","photos":[{"height":4000,"html_attributions":["<a href=\"https:\/\/maps.google.com\/maps\/contrib\/101946967688761938963\/photos\">Sharad Tiwari<\/a>"],"photo_reference":"CmRaAAAAEL0GpaWYNy5UCCyvYVNaefAVPr0ppFUUbtQ5PzlaLssmGvaY4H3LxZGnPNY6pJbgoAIw9TKNUYkKq4ZsQ8_sJaQljJAISvjEuhi0KCPYG2QrjU7HOEG7MufdAp6oYb0NEhCu2rWZGWBvVl06QtX-rjIuGhRRftZkhDgGPrsF7Sij7pJJBrCigA","width":6000}],"place_id":"ChIJjT-Hs3jlDDkR4FOWJd8-v88","rating":2.9,"reference":"CmRSAAAA-yw3fau44bFiPZZBVNIKB34l1YIP63tEMb7XOwoFRJbXVnPbadkev4QZVNzc2a1oKPF5h0lbJeBkpgLG-x821Bsxx7gjOQMrwB7AqN__DX-N7C7dFftp7B_LwBFtfZTbEhCT164KNFmBwEliOrMHBFMJGhT3fAVM-wLnldvrqQzxQw2Ci_597w","scope":"GOOGLE","types":["gas_station","point_of_interest","establishment"],"vicinity":"E-block, Sector 52, Noida"},{"geometry":{"location":{"lat":28.5945411,"lng":77.35929329999999},"viewport":{"northeast":{"lat":28.5956953802915,"lng":77.3608365302915},"southwest":{"lat":28.5929974197085,"lng":77.35813856970849}}},"icon":"https:\/\/maps.gstatic.com\/mapfiles\/place_api\/icons\/gas_station-71.png","id":"033854c7b34d953bb218f05818837e4b9c0b95cd","name":"Indian Oil","photos":[{"height":2592,"html_attributions":["<a href=\"https:\/\/maps.google.com\/maps\/contrib\/101244688276603144476\/photos\">tushar sharma<\/a>"],"photo_reference":"CmRaAAAAmstA6E6KEc45E1vj9m72fbLC4mzxVUdfBIBrjAWxoHf9lmTcGMgBfIBOFuoU-tveFlmwFQWTG7VyIOUnDmIJiJc1FOrDyVKXqD2BVWCNYNBIgCDP-8D0IMhe3z_fh39sEhDb6hELRH4oHlEf1aqyhL4zGhRXaafrvDEb795dQg6jxP783tIppg","width":4608}],"place_id":"ChIJi6rqSXTlDDkRduMliIYikkA","rating":1.7,"reference":"CmRRAAAAqPgpRGuvJ7ymbpGkz47dhOveoFOV2Idl_jQM5vpVsMI8u_1sl6887N3Zw14nX5vOGjUmfreUGF3V6kTmY_iVAbYf748O-5GvFpJxTxdZBcYhYltHCyuolhEhOrtnbDSLEhDsYiK021-_JOjE_lr6lQ8KGhRyOozD1xK2jZ4g8kwvGL2X7OnB5Q","scope":"GOOGLE","types":["gas_station","point_of_interest","establishment"],"vicinity":"Sector 54, Noida"},{"geometry":{"location":{"lat":28.5917958,"lng":77.3793992},"viewport":{"northeast":{"lat":28.5930234802915,"lng":77.3807851802915},"southwest":{"lat":28.5903255197085,"lng":77.37808721970848}}},"icon":"https:\/\/maps.gstatic.com\/mapfiles\/place_api\/icons\/gas_station-71.png","id":"1edcdb16b6b48356fb689cc6f0151e60271b5434","name":"Bharat Petroleum","opening_hours":{"open_now":true,"weekday_text":[]},"place_id":"ChIJI3667n_vDDkRvxiAOEn2Ry0","rating":3.5,"reference":"CmRRAAAADb7fet_uIKhmEYzkQ5Nld3C4efS90yoDd8alplCMF7zpv_rCC1q-xToQpZ2xj93xhhegbAAZiNg-QWS6rX3HLhBF3-N3dLy3QAhwR2pT8p4Fg6LTbcn3D7X9KFa_eDJXEhCDfSkF6zBVKJ4b_SboNOyyGhTcDIYKxBJvgmrpH7Ap8YGjbUzRQA","scope":"GOOGLE","types":["gas_station","point_of_interest","establishment"],"vicinity":"Sector 71, Noida"},{"geometry":{"location":{"lat":28.5614295,"lng":77.3614874},"viewport":{"northeast":{"lat":28.5626566802915,"lng":77.36273348029151},"southwest":{"lat":28.5599587197085,"lng":77.36003551970849}}},"icon":"https:\/\/maps.gstatic.com\/mapfiles\/place_api\/icons\/gas_station-71.png","id":"0ce9e13c69d0930112d6cc724b63d770fd321af0","name":"HP Petrol Pump","photos":[{"height":2448,"html_attributions":["<a href=\"https:\/\/maps.google.com\/maps\/contrib\/101240241775556815304\/photos\">Praveen Khunte<\/a>"],"photo_reference":"CmRaAAAAClEwRj7sUf_GxKAJ-qa6Vdl7BPzcY9TWlSc-EOyOYapJv_6vUn20II544Y_r3jfHd3vnUvt9Zd1wG9W--X26XnqqUHYsTG02vRmGhpLDYtOQfKYnjXeIS3ZCNz8z3rQHEhDehinpXwyH-pkHZO7Ba1PnGhRainDmtjQMgDLvnQpCdisWiql0Kw","width":3264}],"place_id":"ChIJL1Pvs-7lDDkRBeHV4mKElBw","rating":3.7,"reference":"CmRRAAAA-OQhqMtf_5i_DX0WDTKQxUqCHj0WzsYcOoH5edYihlLv4oRgj87qJObUsfIG2Do0e4PZvBXwOhg3BSZE7uIlyLR0DKXXvoJdScNDPfTqiGuYkCDQTW_yDwfwqphvS2suEhBtIJdduCDJb3OiT98WsJVaGhQ5X2aIVFtFeo5D7Gger7pMZdmGiQ","scope":"GOOGLE","types":["gas_station","point_of_interest","establishment"],"vicinity":"Aghapur, Sector 49, Noida"},{"geometry":{"location":{"lat":28.65883809999999,"lng":77.35405},"viewport":{"northeast":{"lat":28.6603613302915,"lng":77.35527043029151},"southwest":{"lat":28.6576633697085,"lng":77.3525724697085}}},"icon":"https:\/\/maps.gstatic.com\/mapfiles\/place_api\/icons\/gas_station-71.png","id":"feabe34fb8f041d4ac81c48b0ee04a9f2c5ae56f","name":"IPG CNG Station","place_id":"ChIJ-Yu_GMD6DDkRi25fp3OSty4","rating":3.8,"reference":"CmRRAAAAE36fB3-bUH3sA-WBmfMGFFjXCPtkbS6MG-gVLRW9kpLlqnR0ygd2bWjlOYdySX_4fKRutQ8IY7IBt8--Afqz1WyrXtfKrl2Box2fiX2CMhK5297SZw5mBeaGYGii43c2EhCJKbBSTbXYIccqQina2MpfGhQ6u4CdWozG1_XVbknAiSY2OKLiWg","scope":"GOOGLE","types":["gas_station","point_of_interest","establishment"],"vicinity":"Madan Mohan Malviya Marg, Sector 16, Vasundhara, Ghaziabad"},{"geometry":{"location":{"lat":28.6036505,"lng":77.33576240000001},"viewport":{"northeast":{"lat":28.6050298302915,"lng":77.33691358029151},"southwest":{"lat":28.6023318697085,"lng":77.3342156197085}}},"icon":"https:\/\/maps.gstatic.com\/mapfiles\/place_api\/icons\/gas_station-71.png","id":"08f7ad1cdb6a6a8b2696a2b4be713b30ca2c5485","name":"Indian Oil","opening_hours":{"open_now":true,"weekday_text":[]},"photos":[{"height":3120,"html_attributions":["<a href=\"https:\/\/maps.google.com\/maps\/contrib\/116860439747172420670\/photos\">Nayan Halder<\/a>"],"photo_reference":"CmRaAAAARx2Z52mjn5Ucl_2H99gggr3uI5U7qOwZUYtNPeVF1h_pHvuWBimQHFm3Ggc0crPo70izOBd6T901s_LiVu_9cyV_KwpMZoiymwkH8oomC-KO0VFfYNzdRGUCwHYQGZ_QEhBrSBGWfVsdKHu-7VW7frzaGhTUdjFaG17_nd5yAX38d1VQAT9hCQ","width":4160}],"place_id":"ChIJVUqStR3lDDkR4e42rRZsI9k","rating":4,"reference":"CmRSAAAAPZaYJazNUQMgTVZsWP45XBU5EGbs09Glzvmk3o4GPNg0at-jusptxrWChloLlDiwtrTR3ev1iKOq9gmP1JPygH8-PWw0BfAGoiGPVvC86U3dk-iJVQbmNFVb4xM7XMZrEhCl4ATPgee-OiwaOB5sz9jfGhRmJ7DF5k5RyT90ngVUIJjXUSy10A","scope":"GOOGLE","types":["gas_station","point_of_interest","establishment"],"vicinity":"New Kondli, R.K. Chowk, Mayur Vihar, Phase-3, Sector G,, Delhi"},{"geometry":{"location":{"lat":28.5770163,"lng":77.3585063},"viewport":{"northeast":{"lat":28.5781894802915,"lng":77.3599442302915},"southwest":{"lat":28.5754915197085,"lng":77.3572462697085}}},"icon":"https:\/\/maps.gstatic.com\/mapfiles\/place_api\/icons\/gas_station-71.png","id":"967b34f139bef692864caf4da050e99d944359fc","name":"IGL Gas Station","place_id":"ChIJNzM4qZflDDkRYO55PK8smRU","rating":3.5,"reference":"CmRRAAAAqeJNim_VP63SY_D7KGMqdfw4oEDy5n-O2_LFN-Cui62k4Bc4vN0In244uDR0lJsJgGyUSAMd6h16yjL6OKGUi-XCCFhruWUrEmmRipWtqIxzeb-mDzXxoM71VjamPnahEhCaGMWdP3Lfvd_K-sgnFJE3GhQhSXg1VBv4RgNxBBpdXGKg16aQSg","scope":"GOOGLE","types":["gas_station","point_of_interest","establishment"],"vicinity":"Sector 35, Noida"},{"geometry":{"location":{"lat":28.6438876,"lng":77.31708499999999},"viewport":{"northeast":{"lat":28.6453055802915,"lng":77.31837958029149},"southwest":{"lat":28.64260761970849,"lng":77.31568161970849}}},"icon":"https:\/\/maps.gstatic.com\/mapfiles\/place_api\/icons\/gas_station-71.png","id":"5b032ed8bbf90e733d366d85595ce5592df47f05","name":"Indian Oil","photos":[{"height":3024,"html_attributions":["<a href=\"https:\/\/maps.google.com\/maps\/contrib\/103711546890087276275\/photos\">Ravinder Batta<\/a>"],"photo_reference":"CmRaAAAA1iNi0_PwtQ80OrcNCo3rYBHkpY7VQYu0DfDbqxNzXSOqJ0L75dV84B1lp3mya4dSNXPqIx1cSVzmeWslqOJBXbZVPvG6Csjo74UyLhJV79_bLPI1PhhVrlZ6baBRhgPiEhCnRTHLCj4R357OrgOLX1cmGhSHQaVBghLPDqcdA6bIXfGMZdjQRw","width":4032}],"place_id":"ChIJJUvhdjr7DDkRLupOFYfI1Ho","rating":3.6,"reference":"CmRRAAAAxfVM0TTU_qKxu7sYpU_00YOQERfvtMcN-Jnpa6fs1NmlxuEx3LNap_1I6ug5D3j8XF3Yll7FGzvkT_pOkpWbTNF_nSbYAzb3TqVT0oORcGF-M-7ppWCd7c2t59Y4lOeTEhAnq84r0YnEeckKXfZgmhkZGhQ6fHCRAIjOENUOUr3ruG8JwpDapQ","scope":"GOOGLE","types":["gas_station","point_of_interest","establishment"],"vicinity":"Ghazipur Road, Kaushambi"},{"geometry":{"location":{"lat":28.5916848,"lng":77.3389693},"viewport":{"northeast":{"lat":28.5931834302915,"lng":77.3401750802915},"southwest":{"lat":28.5904854697085,"lng":77.3374771197085}}},"icon":"https:\/\/maps.gstatic.com\/mapfiles\/place_api\/icons\/gas_station-71.png","id":"ab408ec0b603b09109d4ff510511cda836cd37d2","name":"Indian Oil","photos":[{"height":3120,"html_attributions":["<a href=\"https:\/\/maps.google.com\/maps\/contrib\/100020877275866408286\/photos\">paps eddy<\/a>"],"photo_reference":"CmRaAAAAlH3fM1Df13ip4ln44Ed19Rk9_kbZUoPlBoFqPP0Xs6lXjaD8ZbRJYyhPOp9DLPZS7HTvywC83m4gfz5hrUKeiWTwg6EpuJF0xB8Bk8Gc_Qvu_T7fhwOOr9Xf5uegykKmEhBGMFY1eyyR0Gv-OJnEwVIuGhQkAnTHRCOHdIu6tci5NTbu-k3VPA","width":4160}],"place_id":"ChIJt65LJgflDDkRnP3YxK2F17Y","rating":3.3,"reference":"CmRSAAAADJANKl_PAS5uhoqO5PqIcSnwim_MMIaaXiRjS0lx2msxOGOc3_jxn0bc7mQtBz4sPDytTkgU9jRZiVSGhrQleQWyXZ26XV6NakW3dGbkvuAFMIbW7hUXFLgJahg9NGMXEhCbpixA9z2YI7CrgtqZFgNwGhQCPmdyPYHA3v5n9EhZ7PNStzO2Fg","scope":"GOOGLE","types":["gas_station","point_of_interest","establishment"],"vicinity":"Main Road, Amaltash Marg, Sector 21A, Noida"},{"geometry":{"location":{"lat":28.658876,"lng":77.3538169},"viewport":{"northeast":{"lat":28.66037873029149,"lng":77.3551511302915},"southwest":{"lat":28.65768076970849,"lng":77.3524531697085}}},"icon":"https:\/\/maps.gstatic.com\/mapfiles\/place_api\/icons\/gas_station-71.png","id":"5d4f07f839dec4db3c6f38ea5acbccbb98e4c02c","name":"Tyagi Service Station","opening_hours":{"open_now":false,"weekday_text":[]},"place_id":"ChIJJ1SAIcD6DDkRg-6M5r8ayjA","rating":3.8,"reference":"CmRRAAAA5WS1Q-hG-g6DuTxQvJeshIbTZAAPunHceimzMs7s3Q2aGurt-90PH-4-dUXv-oIDcISjzdrMcBUvUYmecleflaCipWh9uFmRzdNnoTju9rXuOiYc_6AWhUSey2-uuF9OEhCvNq2E8-oqvftNag_MExBmGhQkZJdFcFO_6GlntuXqbCuazlLNMw","scope":"GOOGLE","types":["gas_station","point_of_interest","establishment"],"vicinity":"Madan Mohan Malviya Marg, Sector 16, Vasundhara, Ghaziabad"},{"geometry":{"location":{"lat":28.5616892,"lng":77.3581942},"viewport":{"northeast":{"lat":28.5628803302915,"lng":77.3595248302915},"southwest":{"lat":28.5601823697085,"lng":77.3568268697085}}},"icon":"https:\/\/maps.gstatic.com\/mapfiles\/place_api\/icons\/gas_station-71.png","id":"6ed8356491fe1fac0e24059c020839776745cf18","name":"Indian Oil Petrol Pump","opening_hours":{"open_now":true,"weekday_text":[]},"photos":[{"height":2627,"html_attributions":["<a href=\"https:\/\/maps.google.com\/maps\/contrib\/114225461675958969102\/photos\">Gopal Kale<\/a>"],"photo_reference":"CmRaAAAAZuEpSxGCLJt7n6231FktHi8Waf4G4lfG6NdKv13elgH5KaTgObEkuiN40YRLVdAMmD0pebMZS2zNi9sP_38A-umezYWz1uv3OF8oFRBt_ge6q1pAlNdBg4bg0dzxOJ7UEhCndAnzkcMPmevVUEDyP_9IGhRu4MgLcQOiUsOxOLXN7SmCKt8kbg","width":3194}],"place_id":"ChIJeQNIgunlDDkR22qSKh8wt_A","rating":3.7,"reference":"CmRSAAAAEyNxPh3SWHB7-rGdeF_NCD607R0q_NSO9kkrKxCRA3OHO7JZmcUsG1493miE2hI3y_gpFhik8LZe_KUjpqgSl-ViMzZ88547BYqGIcQJd5xhDFhLggtibZJ2gWMNyOETEhClLSpgj4kXaQxUMD5cbqJOGhRYnm8uM386OylP52ofziTaSxh_ow","scope":"GOOGLE","types":["gas_station","point_of_interest","establishment"],"vicinity":"Dadri Rd, Aghapur, Sector 41, Noida"},{"geometry":{"location":{"lat":28.6100887,"lng":77.371528},"viewport":{"northeast":{"lat":28.6114046802915,"lng":77.3728552802915},"southwest":{"lat":28.60870671970849,"lng":77.3701573197085}}},"icon":"https:\/\/maps.gstatic.com\/mapfiles\/place_api\/icons\/gas_station-71.png","id":"39db9ffa9cfe44a2fff7c95cb20def0c24c62767","name":"HP Petrol Pump","opening_hours":{"open_now":true,"weekday_text":[]},"photos":[{"height":2340,"html_attributions":["<a href=\"https:\/\/maps.google.com\/maps\/contrib\/110789818667977786664\/photos\">Pankaj Jain<\/a>"],"photo_reference":"CmRaAAAAHcm8LXmO3jdG9TVKs8G9B-nxEc9muxtCyp6mlGvsKuo7io2ySX2JJ336eLiWHXR4ZVlcNc2lre45BZWvVxpPwV2dGblLWENO1z92KBGqi5q9KKCiqp3jfMGq_l6G02lGEhBoOp1zVJSvmi7wNjXD6EoQGhQaSFFaKL_W7FTnlG2UCsItYxbB4g","width":4160}],"place_id":"ChIJz6mYvGblDDkRrec2YLUFaEo","rating":3.7,"reference":"CmRRAAAADOKNK-MIZ34YVjRXPBC8TurbJ3O3owuzXAzCDVoCBuk1NlekcKnzOcTFLkm8p1Z3F5D6YyCLdLYtMC6tmDN4a7XRBdO2K5Xk80CVleco2UMhms_5w316uHJwPGc_foLAEhD05H197GLImXbSuqO7dcifGhSl_qBxRGDihp1H6bUvJUoE-sCX9Q","scope":"GOOGLE","types":["gas_station","point_of_interest","establishment"],"vicinity":"Near Mamoora Chowk, C Block, Phase 2, Industrial Area, Sector 62, Noida"},{"geometry":{"location":{"lat":28.6130295,"lng":77.36546109999999},"viewport":{"northeast":{"lat":28.6143784802915,"lng":77.36681008029149},"southwest":{"lat":28.6116805197085,"lng":77.36411211970848}}},"icon":"https:\/\/maps.gstatic.com\/mapfiles\/place_api\/icons\/gas_station-71.png","id":"d1de24eab34fd73e3a04fc8e634c5df491baaa4c","name":"C&S electric ltd","opening_hours":{"open_now":false,"weekday_text":[]},"place_id":"ChIJ____P2jlDDkR6rzjxW4hRg0","reference":"CmRRAAAAzDzPD1RnuIUxzdav3lOy_Hd0MpPzC0lNLbpU2JmaFyo27hpDb5T9LrIzzrP_HyPjfm-U_pj7zw_OllU9uNM_6yPXfcmPZDmSCIRUIQ58EffDionl4iK4lBWlf1EmYsb7EhDcsHmd51Er3rdQ2JUIgqvuGhTECK_LA-dlfSw0KxAXhQhpumsOUw","scope":"GOOGLE","types":["gas_station","point_of_interest","establishment"],"vicinity":"c-, Phase 2, Industrial Area, Sector 60, Noida"},{"geometry":{"location":{"lat":28.5978815,"lng":77.40431389999999},"viewport":{"northeast":{"lat":28.5992348302915,"lng":77.4057999802915},"southwest":{"lat":28.5965368697085,"lng":77.4031020197085}}},"icon":"https:\/\/maps.gstatic.com\/mapfiles\/place_api\/icons\/gas_station-71.png","id":"d7b691d831247a1734a2b9da99d220fc99496c00","name":"Indraprastha Gas Limited","opening_hours":{"open_now":true,"weekday_text":[]},"photos":[{"height":2304,"html_attributions":["<a href=\"https:\/\/maps.google.com\/maps\/contrib\/117962548913048766493\/photos\">Md Danish Ansari<\/a>"],"photo_reference":"CmRaAAAAeM5wy6sO7gqSdTdXfJrbj2q68H8y8F-dZ7wUJAmbAj8Ly1uRXCOlFWpPfUDhKAgL3Aq5ex4lLz-mprd3oy-Hiud-8MeUaxcvYwXuTiLDYJyNF3UAqxtkPh8qVIXe1DmbEhDWxY94-FxNLrLEWq24V__-GhQEo5NDVbd5FoTgNNjhEJNAE4jREw","width":4096}],"place_id":"ChIJy2tA-KDvDDkRhvWf8I120lE","rating":4.1,"reference":"CmRRAAAAuTVbSvNe5gxWNHT1vOWy6jFPrOz0zYqT8PM1sT_zuZ7B2tuK0WoDY7zd0BYYSQRokVjBnEjlMidz9Ro138RKBF7ah2G0YXEt22uXQ0i0KANOzwc6lkHgxaIIAB5-ITucEhDtypVFf9G21vdJMES0Mwj_GhSOtaEYQWddrm3L50mPs8M9Rld8PA","scope":"GOOGLE","types":["gas_station","point_of_interest","establishment"],"vicinity":"Sector 122, Noida"},{"geometry":{"location":{"lat":28.6067511,"lng":77.3597194},"viewport":{"northeast":{"lat":28.6081000802915,"lng":77.36106838029151},"southwest":{"lat":28.6054021197085,"lng":77.3583704197085}}},"icon":"https:\/\/maps.gstatic.com\/mapfiles\/place_api\/icons\/gas_station-71.png","id":"0127e54ae795bc63f7ba953e696eb832ff01a098","name":"intellisys global","place_id":"ChIJq6qqamzlDDkRNkhGAGWgyWQ","reference":"CmRRAAAAoiKYe1vruxW8brhugf2kqgWKF5ozoEffYfiyz9MfsFotiLe3GSNaYQjtwC_SS5QUvbzZYfuUvCtL44MVGnHHObvBuZwmP2YRdl9_55GGjC7tBvZoJ9CmHYi-JpmtB8R3EhB9_Ky_Wb4sLXeArZBnOA6SGhQRMRbIxbmYpDKsjzZQYeLU_Cmyaw","scope":"GOOGLE","types":["gas_station","point_of_interest","establishment"],"vicinity":"Sector 58, Noida"},{"geometry":{"location":{"lat":28.6375716,"lng":77.4149231},"viewport":{"northeast":{"lat":28.6389205802915,"lng":77.41627208029149},"southwest":{"lat":28.6362226197085,"lng":77.41357411970849}}},"icon":"https:\/\/maps.gstatic.com\/mapfiles\/place_api\/icons\/gas_station-71.png","id":"918c5d1e56d4a5f7ec2147dbe606a2b29d3541e0","name":"Mamta Cloth House","place_id":"ChIJ3czZPNfvDDkRoVuCxexHzz8","rating":5,"reference":"CmRRAAAAYbi-PCWsFcgBv3Wi7qQSEojr2Ix2uSfwUbeIw2E3H-2cduWCAsqExnQb5xUusogvnxBGIWtEMNeAf6heKABK14ZcL9YQ63OW5KJ1tI25Hgcld-P-vh_ypoOUPGohzr5-EhDpR9bvbiy9vznb4GV6OM2TGhSQsQaTZJ07iteg2oOS2S8qKgeSuw","scope":"GOOGLE","types":["gas_station","point_of_interest","establishment"],"vicinity":"7, 7, Christian Nagar, Nai Basti Dundahera, Ghaziabad"},{"geometry":{"location":{"lat":28.647362,"lng":77.378495},"viewport":{"northeast":{"lat":28.6486905802915,"lng":77.3799803802915},"southwest":{"lat":28.64599261970849,"lng":77.3772824197085}}},"icon":"https:\/\/maps.gstatic.com\/mapfiles\/place_api\/icons\/gas_station-71.png","id":"6357d9fd1a39273531e9b53a6fe349001840a5be","name":"Bharat Petroleum","photos":[{"height":2988,"html_attributions":["<a href=\"https:\/\/maps.google.com\/maps\/contrib\/101617922532647265330\/photos\">Harish Chandra<\/a>"],"photo_reference":"CmRaAAAAV81ULkMy1IvXS8NfmcISurvIb218nMXgiELAyOvJf6JhvArVSU6p5X1UM8-eo4i26D2wodDdAfES1KEUZ2Aaz2eVjkDsi8wdnxyDVDMujozxPo9uYlMIUSjgvfwCOo6CEhA_jPgsFUK25lTUqqlR_-HIGhRfneb7F4sACJBn694Df9tQr2NDMw","width":5312}],"place_id":"ChIJV6Q0Zqz6DDkRZWNg5np5jVM","rating":3.9,"reference":"CmRRAAAAJ46hAruRYVz07jRZAI1pqmN6mIMJGzjXT6el7zYPjXBQsaeqFX4XaG2BQkld6nm6ebab2xEU9QjqndzbceEi2uFabwDmzMG9u8biGHf27k_6rQGueg3A9Z6iVUyuXvcbEhCSHH56IMXQrScg-VDRya9TGhT0mYqloxpeS42BqLyBHljR4lRlJw","scope":"GOOGLE","types":["gas_station","point_of_interest","establishment"],"vicinity":"Rail Vihar, Niti Khand 3, Manoj Vihar, Indirapuram, Ghaziabad"}]